{
    "places": [
        {"title": "Crowne Plaza", "address": "19 New Bridge Street London EC4V 6DB, United Kingdom", "phone": "+44 871 942 9190", "url": "https://activmap.pandao.eu/", "tags": ["tourism_01"], "lat": 51.512279, "lng": -0.104649, "img": "images/thumb.png"},
        {"title": "The Cavendish London", "address": "81 Jermyn Street London SW1Y 6JF, United Kingdom", "phone": "+44 20 7930 2111", "url": "https://activmap.pandao.eu/", "tags": ["tourism_01"], "lat": 51.507632, "lng": -0.137779, "img": "images/thumb.png"},
        {"title": "Hilton London Tower Bridge", "address": "5 More London Place, Tooley Street London SE1 2BY, United Kingdom", "phone": "+44 20 3002 4300", "url": "https://activmap.pandao.eu/", "tags": ["tourism_01"], "lat": 51.504580, "lng": -0.082737, "img": "images/thumb.png"},
        {"title": "Hertz Rent-A-Car", "address": "35 Edgware Road London W2 2JE, United Kingdom", "phone": "+44 870 844 8844", "url": "https://activmap.pandao.eu/", "tags": ["shops_04"], "lat": 51.514633, "lng": -0.162566, "img": "images/thumb.png"},
        {"title": "Radiant Hair and Beauty Salon", "address": "178 Jamaica Road London, UK SE16 4RT, United Kingdom", "phone": "+44 20 7231 8833", "url": "https://activmap.pandao.eu/", "tags": ["shops_01"], "lat": 51.498222, "lng": -0.062331, "img": "images/thumb.png"},
        {"title": "Harrods", "address": "87-135 Brompton Road London SW1X 7XL, United Kingdom", "phone": "+44 20 7730 1234", "url": "https://activmap.pandao.eu/", "tags": ["shops_01","shops_02"], "lat": 51.499418, "lng": -0.163239, "img": "images/thumb.png"},
        {"title": "House of Fraser", "address": "318 Oxford Street London W1C 1HF, United Kingdom", "phone": "+44 344 800 3752", "url": "https://activmap.pandao.eu/", "tags": ["shops_02"], "lat": 51.514886, "lng": -0.146204, "img": "images/thumb.png"},
        {"title": "Holland & Barrett", "address": "94A Brompton Road Knightsbridge, London SW3 1ER, United Kingdom", "phone": "+44 20 7581 3324", "url": "https://activmap.pandao.eu/", "tags": ["shops_03"], "lat": 51.499875, "lng": -0.164063, "img": "images/thumb.png"},
        {"title": "Whole Foods Market", "address": "20 Glasshouse Street London W1B 5AR, United Kingdom", "phone": "+44 20 7406 3100", "url": "https://activmap.pandao.eu/", "tags": ["shops_03"], "lat": 51.510434, "lng": -0.136833, "img": "images/thumb.png"},
        {"title": "Greensmiths", "address": "27 Lower Marsh London SE1 7RG, United Kingdom", "phone": "+44 20 7921 2970", "url": "https://activmap.pandao.eu/", "tags": ["shops_03"], "lat": 51.500827, "lng": -0.112327, "img": "images/thumb.png"},
        {"title": "Emirates Stadia", "address": "Hornsey Road London N7 7AJ, United Kingdom", "phone": "+44 20 7619 5003", "url": "https://activmap.pandao.eu/", "tags": ["services_06"], "lat": 51.554888, "lng": -0.108419, "img": "images/thumb.png"},
        {"title": "Wembley Stadium", "address": "Wembley London HA9 0WS, United Kingdom", "phone": "+44 844 980 8001", "url": "https://activmap.pandao.eu/", "tags": ["services_06"], "lat": 51.555973, "lng": -0.279502, "img": "images/thumb.png"},
        {"title": "Saint Mary's Hospital", "address": "Praed Street Paddington London W2 1NY, United Kingdom", "phone": "+44 20 3312 6666", "url": "https://activmap.pandao.eu/", "tags": ["services_02"], "lat": 51.517158, "lng": -0.173877, "img": "images/thumb.png"},
        {"title": "The Wellington Hospital", "address": "Wellington Place London NW8 9LE, United Kingdom", "phone": "+44 20 7586 5959", "url": "https://activmap.pandao.eu/", "tags": ["services_02"], "lat": 51.531531, "lng": -0.171516, "img": "images/thumb.png"},
        {"title": "Westminster School", "address": "Little Smith Street London SW1P 3PF, United Kingdom", "phone": "+44 20 7963 1000", "url": "https://activmap.pandao.eu/", "tags": ["services_05"], "lat": 51.4981706, "lng": -0.1279789, "img": "images/thumb.png"},
        {"title": "The City Of London School", "address": "107 Queen Victoria Street London EC4V 3AL, United Kingdom", "phone": "+44 20 7489 0291", "url": "https://activmap.pandao.eu/", "tags": ["services_05"], "lat": 51.511740, "lng": -0.098659, "img": "images/thumb.png"},
        {"title": "London Fire & Emergency Planning Authority", "address": "169 Union Street London SE1 0LL, United Kingdom", "phone": "+44 20 8555 1200", "url": "https://activmap.pandao.eu/", "tags": ["services_04"], "lat": 51.503546, "lng": -0.098593, "img": "images/thumb.png"},
        {"title": "Southwark Fire Station", "address": "126 Shaftsbury Avenue London W1D 5ET, United Kingdom", "phone": "+44 20 8555 1200", "url": "https://activmap.pandao.eu/", "tags": ["services_04"], "lat": 51.502047, "lng": -0.09798, "img": "images/thumb.png"},
        {"title": "Soho Fire Station", "address": "126 Shaftsbury Avenue London W1D 5ET, United Kingdom", "phone": "+44 20 8555 1200", "url": "https://activmap.pandao.eu/", "tags": ["services_04"], "lat": 51.512469, "lng": -0.130089, "img": "images/thumb.png"},
        {"title": "Scotland Yard", "address": "8-10 Broadway London SW1H 0BG, United Kingdom", "phone": "+44 20 7230 1212", "url": "https://activmap.pandao.eu/", "tags": ["services_04"], "lat": 51.498511, "lng": -0.133091, "img": "images/thumb.png"},
        {"title": "Big Ben", "address": "London SW1A 0AA, United Kingdom", "phone": "", "url": "https://activmap.pandao.eu/", "tags": ["tourism_02"], "lat": 51.500729, "lng": -0.124625, "img": "images/thumb.png"},
        {"title": "Saint Paul's Cathedral", "address": "St. Paul's Churchyard London EC4M 8AD, United Kingdom", "phone": "+44 20 7246 8350", "url": "https://activmap.pandao.eu/", "tags": ["services_03","tourism_02"], "lat": 51.513845, "lng": -0.098351, "img": "images/thumb.png"},
        {"title": "Westminster Abbey", "address": "20 Deans Yd, London SW1P 3PA, United Kingdom", "phone": "+44 20 7222 5152", "url": "https://activmap.pandao.eu/", "tags": ["services_03","tourism_02"], "lat": 51.499292, "lng": -0.12731, "img": "images/thumb.png"},
        {"title": "Tower Bridge", "address": "Tower Bridge Road London SE1 2UP, United Kingdom", "phone": "+44 20 7403 3761", "url": "https://activmap.pandao.eu/", "tags": ["tourism_02"], "lat": 51.505456, "lng": -0.075356, "img": "images/thumb.png"},
        {"title": "Palace of Westminster", "address": "Westminster London SW1A 0AA, United Kingdom", "phone": "+44 20 7219 3000", "url": "https://activmap.pandao.eu/", "tags": ["tourism_02","tourism_03"], "lat": 51.499479, "lng": -0.124809, "img": "images/thumb.png"},
        {"title": "National Gallery", "address": "Trafalgar Square London WC2N 5DN, United Kingdom", "phone": "+44 20 7747 2885", "url": "https://activmap.pandao.eu/", "tags": ["services_01","tourism_03"], "lat": 51.508916, "lng": -0.128294, "img": "images/thumb.png"},
        {"title": "The British Museum", "address": "Great Russell Street London WC1B 3DG, United Kingdom", "phone": "+44 20 7323 8299", "url": "https://activmap.pandao.eu/", "tags": ["services_01","tourism_03"], "lat": 51.519400, "lng": -0.126984, "img": "images/thumb.png"}
    ]
}
